[
  {
      "nome": "Loja Avenida Paulista",
      "endereco": "Avenida Paulista, 1578 - Bela Vista, São Paulo - SP",
      "cep": "01310-200",
      "coordenadas": { "latitude": -23.561732, "longitude": -46.656139 }
  },
  {
      "nome": "Loja Shopping Center Norte",
      "endereco": "Travessa Casalbuono, 120 - Vila Guilherme, São Paulo - SP",
      "cep": "02047-050",
      "coordenadas": { "latitude": -23.515648, "longitude": -46.621798 }
  },
  {
      "nome": "Loja Rua Vergueiro",
      "endereco": "Rua Vergueiro, 1000 - Liberdade, São Paulo - SP",
      "cep": "01504-001",
      "coordenadas": { "latitude": -23.574984, "longitude": -46.635321 }
  },
  {
      "nome": "Loja Iguatemi Campinas",
      "endereco": "Avenida Iguatemi, 777 - Vila Brandina, Campinas - SP",
      "cep": "13092-902",
      "coordenadas": { "latitude": -22.902780, "longitude": -47.027502 }
  },
  {
      "nome": "Loja Shopping Parque Balneário",
      "endereco": "Avenida Ana Costa, 549 - Gonzaga, Santos - SP",
      "cep": "11060-003",
      "coordenadas": { "latitude": -23.968599, "longitude": -46.331848 }
  },
  {
      "nome": "Loja Centro Rio de Janeiro",
      "endereco": "Rua Uruguaiana, 200 - Centro, Rio de Janeiro - RJ",
      "cep": "20050-093",
      "coordenadas": { "latitude": -22.903923, "longitude": -43.177724 }
  },
  {
      "nome": "Loja Avenida Afonso Pena",
      "endereco": "Avenida Afonso Pena, 1300 - Centro, Belo Horizonte - MG",
      "cep": "30130-004",
      "coordenadas": { "latitude": -19.922680, "longitude": -43.937891 }
  },
  {
      "nome": "Loja Rua dos Andradas",
      "endereco": "Rua dos Andradas, 1500 - Centro Histórico, Porto Alegre - RS",
      "cep": "90020-010",
      "coordenadas": { "latitude": -30.027704, "longitude": -51.228734 }
  },
  {
      "nome": "Loja Rua XV de Novembro",
      "endereco": "Rua XV de Novembro, 800 - Centro, Curitiba - PR",
      "cep": "80020-310",
      "coordenadas": { "latitude": -25.428356, "longitude": -49.273251 }
  },
  {
      "nome": "Loja Setor Comercial Sul",
      "endereco": "Setor Comercial Sul, Quadra 2 - Asa Sul, Brasília - DF",
      "cep": "70312-970",
      "coordenadas": { "latitude": -15.793220, "longitude": -47.882189 }
  }
]
